timeStamp,Pfwd,PfwdSmoothed,P45,P45Smoothed,PStatic,Palt,IAS,AngleofAttack,flapsPos,DataMark,OAT,TAS,imuTemp,VerticalG,LateralG,ForwardG,RollRate,PitchRate,YawRate,Pitch,Roll,boomStatic,boomDynamic,boomAlpha,boomBeta,boomIAS,boomAge,vnAngularRateRoll,vnAngularRatePitch,vnAngularRateYaw,vnVelNedNorth,vnVelNedEast,vnVelNedDown,vnAccelFwd,vnAccelLat,vnAccelVert,vnYaw,vnPitch,vnRoll,vnLinAccFwd,vnLinAccLat,vnLinAccVert,vnYawSigma,vnRollSigma,vnPitchSigma,vnGnssVelNedNorth,vnGnssVelNedEast,vnGnssVelNedDown,vnGnssLat,vnGnssLon,vnGPSFix,vnDataAge,vnTimeUTC,EarthVerticalG, FlightPath, VSI, Altitude
2860003,847,851,117,118.5,811.96,6041.42,73.12,8.09,0,1,14.38,81.65,36.08,1.022217,0.042969,0.126221,-1.141592,-0.681416,-0.632788,7.27,-0.02,8237,8730,3659,4021,0,29,-0.01,0.02,0,42.15,5.7,0.36,0.12,-0.04,-10.14,0.19,6.89,0.42,-1.06,0.03,-0.41,0.15,0.07,0.07,42.27,5.74,0.37,43.963008,-89.086867,3,16,47:47.0,0.02,-0.46,-66.88,6044
2860023,847,850.6,122,118.5,811.96,6041.42,73.1,8.09,0,1,14.38,81.65,36.08,0.980469,-0.079102,0.09082,0.811533,-0.231282,-0.632788,7.3,-0.04,8237,8730,3659,4021,0,49,0.03,-0.02,-0.02,42.14,5.69,0.37,1.05,0.83,-9.9,0.18,6.89,0.43,-0.12,0.9,-0.17,0.15,0.07,0.07,42.27,5.74,0.37,43.963015,-89.086866,3,16,47:46.0,-0.02,-0.47,-67.46,6043.97
2860043,847,850.2,122,119,811.96,6041.42,73.08,8.1,0,1,14.38,81.63,36.08,0.923584,0.023682,0.136475,-0.4168,1.592143,-0.274206,7.32,-0.05,8237,8730,3659,4021,0,69,0.01,-0.01,-0.01,42.12,5.69,0.36,0.83,-1.22,-9.9,0.17,6.91,0.44,-0.34,-1.15,-0.17,0.15,0.07,0.07,42.27,5.74,0.37,43.963023,-89.086864,3,16,47:46.0,-0.07,-0.47,-67.31,6043.94
2860064,842,849.8,122,119.5,811.72,6049.41,73.06,8.11,0,1,14.38,81.63,36.08,1.131836,-0.015137,0.101807,-1.400992,-1.01711,-0.632788,7.34,-0.06,8237,8730,3659,4021,0,90,-0.01,0.03,-0.01,42.1,5.7,0.36,0.16,0.53,-9.86,0.15,6.91,0.44,-1.02,0.6,-0.13,0.15,0.07,0.07,42.27,5.74,0.37,43.96303,-89.086863,3,16,47:46.0,0.13,-0.47,-67.7,6043.92
2860083,842,849.4,127,120,811.72,6049.41,73.05,8.11,0,1,14.38,81.61,36.08,1.039307,-0.100586,0.098145,-0.676199,-0.620381,-0.327612,7.37,-0.07,8235,8726,3661,4019,0,6,0.02,-0.01,-0.02,42.09,5.69,0.37,0.74,0.47,-9.36,0.14,6.92,0.46,-0.44,0.55,0.36,0.15,0.07,0.07,42.27,5.74,0.37,43.963038,-89.086862,3,17,47:46.1,0.03,-0.47,-67.12,6043.96
2860103,832,849,122,120.5,811.96,6041.42,73.03,8.12,0,1,14.38,81.57,36.08,0.970215,-0.065918,0.13623,-0.752493,1.13438,-0.075842,7.39,-0.09,8237,8724,3660,4019,0,10,0.02,0.01,-0.01,42.07,5.69,0.37,0.89,-0.61,-9.41,0.13,6.93,0.47,-0.3,-0.53,0.32,0.15,0.07,0.07,42.27,5.74,0.37,43.963045,-89.08686,3,15,47:46.1,-0.03,-0.46,-66.84,6043.93
2860123,837,848.6,127,121,811.72,6049.41,73.01,8.13,0,1,14.38,81.57,36.08,1.038818,0.093018,0.173096,-1.736685,-0.689046,-0.937963,7.39,-0.1,8237,8724,3660,4019,0,30,0,0.01,0,42.05,5.69,0.37,-0.42,0.2,-10.58,0.12,6.93,0.47,-1.6,0.28,-0.85,0.15,0.07,0.07,42.27,5.74,0.37,43.963053,-89.086859,3,16,47:46.1,0.05,-0.47,-67.31,6043.97
2860143,842,848.2,131,121,811.72,6049.41,72.99,8.14,0,1,14.38,81.55,36.08,1.085938,-0.127197,0.149902,-1.286551,0.417216,-0.312353,7.41,-0.11,8235,8728,3661,4019,0,7,-0.01,0.01,-0.03,42.04,5.68,0.38,-0.22,0.21,-9.03,0.1,6.94,0.47,-1.4,0.29,0.7,0.15,0.07,0.07,42.27,5.74,0.37,43.963061,-89.086857,3,16,47:46.1,0.09,-0.46,-66.05,6043.98
2860163,837,847.8,127,121,811.47,6057.4,72.97,8.15,0,1,14.38,81.54,36.08,1.126953,0.057129,0.119385,0.872568,0.577434,-1.052404,7.41,-0.14,8235,8728,3661,4019,0,27,0.04,0.02,-0.01,42.02,5.69,0.37,0.85,-0.44,-9.52,0.09,6.95,0.5,-0.34,-0.35,0.21,0.15,0.07,0.07,42.27,5.74,0.37,43.963068,-89.086856,3,16,47:46.1,0.12,-0.44,-63.09,6044.04
2860183,837,847.4,122,121,811.47,6057.4,72.96,8.16,0,1,14.38,81.52,36.08,0.932617,-0.072998,0.072998,-0.477835,0.058635,-0.991369,7.42,-0.16,8235,8728,3661,4019,0,47,-0.02,0.01,-0.02,42,5.68,0.36,0.13,-0.17,-11.52,0.08,6.95,0.49,-1.06,-0.08,-1.79,0.15,0.07,0.07,42.12,5.74,0.26,43.963076,-89.086854,3,16,47:47.2,-0.08,-0.44,-63.72,6044.16
2860204,842,846.5,127,121.5,811.47,6057.4,72.92,8.17,0,1,14.38,81.5,36.08,1.064209,-0.105957,0.166992,-0.386282,0.661357,-0.72434,7.43,-0.17,8237,8724,3654,4023,0,8,-0.02,0.01,-0.01,41.99,5.69,0.37,-0.19,-0.79,-9.15,0.06,6.97,0.5,-1.38,-0.7,0.58,0.15,0.07,0.07,42.12,5.74,0.26,43.963083,-89.086853,3,17,47:47.2,0.07,-0.41,-59.54,6044.3
2860223,847,846,117,122,811.47,6057.4,72.89,8.18,0,1,14.38,81.45,36.08,1.04126,0.020264,0.108154,0.117258,0.798686,-0.403906,7.42,-0.19,8237,8724,3654,4023,0,27,0.01,0.03,0,41.97,5.69,0.37,0.11,-0.66,-8.77,0.05,6.97,0.51,-1.08,-0.58,0.96,0.15,0.07,0.07,42.12,5.74,0.26,43.963091,-89.086852,3,15,47:47.2,0.04,-0.4,-57.59,6044.38
2860243,842,845.5,122,122,811.72,6049.41,72.87,8.19,0,1,14.38,81.41,36.08,1.047363,-0.012695,0.135498,1.116709,-0.162618,-1.098181,7.42,-0.21,8237,8724,3654,4023,0,47,0.04,0,-0.02,41.96,5.69,0.37,0.57,1.4,-11.04,0.03,6.97,0.52,-0.62,1.49,-1.31,0.15,0.07,0.07,42.12,5.74,0.26,43.963098,-89.08685,3,16,47:47.2,0.05,-0.39,-56.5,6044.49
2860263,837,845,122,122,811.72,6049.41,72.85,8.19,0,1,14.38,81.39,36.08,1.070557,-0.044678,0.128174,-1.332327,0.264629,-0.426794,7.42,-0.22,8237,8724,3654,4023,0,67,-0.02,-0.03,-0.02,41.94,5.68,0.37,-0.4,-1.93,-10.01,0.02,6.98,0.52,-1.59,-1.84,-0.29,0.15,0.07,0.07,42.12,5.74,0.26,43.963106,-89.086849,3,16,47:47.2,0.07,-0.37,-53.75,6044.58
2860283,827,844.5,117,122,811.72,6049.41,72.83,8.2,0,1,14.38,81.36,36.08,1.142822,0.042725,0.067627,0.254587,-0.231282,-0.510717,7.41,-0.26,8237,8724,3654,4023,0,87,0.01,0.01,-0.01,41.93,5.69,0.37,0.82,0.4,-8.99,0.01,6.99,0.52,-0.37,0.49,0.73,0.15,0.07,0.07,42.12,5.74,0.26,43.963114,-89.086847,3,16,47:47.3,0.13,-0.36,-51.51,6044.63
2860303,837,844,117,122,811.72,6049.41,72.8,8.21,0,1,14.38,81.34,36.08,0.906738,-0.039551,0.112061,1.696543,-0.2618,-0.823522,7.41,-0.28,8237,8724,3654,4023,0,107,0.03,0,-0.02,41.91,5.68,0.37,0.51,0.6,-10.85,-0.01,6.99,0.52,-0.69,0.69,-1.12,0.15,0.07,0.07,42.12,5.74,0.26,43.963121,-89.086846,3,16,47:47.3,-0.09,-0.37,-52.97,6044.65
2860324,832,843,117,122,811.72,6049.41,72.76,8.22,0,1,14.38,81.31,36.08,1.01709,-0.114258,0.149902,-0.851675,0.630839,-0.3505,7.42,-0.31,8237,8724,3654,4023,0,128,-0.04,0,-0.01,41.89,5.68,0.37,0.42,-1.5,-9.35,-0.02,7,0.51,-0.78,-1.41,0.38,0.15,0.07,0.07,42.12,5.74,0.26,43.963129,-89.086844,3,17,47:47.3,0.02,-0.36,-52.35,6044.65
2860343,837,842,122,122,811.72,6049.41,72.71,8.22,0,1,14.38,81.26,36.08,0.996094,0.036377,0.108154,0.59791,0.844463,-0.289465,7.41,-0.35,8237,8724,3654,4023,0,147,0,0.05,-0.01,41.88,5.68,0.37,0.21,-0.02,-8.83,-0.03,7.01,0.51,-0.98,0.06,0.9,0.15,0.07,0.07,42.12,5.74,0.26,43.963136,-89.086843,3,15,47:47.3,-0.01,-0.36,-52.25,6044.66
2860363,842,841,127,122,811.72,6049.41,72.67,8.23,0,1,14.38,81.21,36.08,0.960693,0.071045,0.182129,1.261667,-0.071065,-1.578833,7.43,-0.36,8237,8724,3654,4023,0,167,0.03,0,-0.02,41.86,5.68,0.37,0.97,1.27,-10.96,-0.05,7,0.51,-0.22,1.36,-1.23,0.15,0.07,0.07,42.12,5.74,0.26,43.963144,-89.086842,3,16,47:47.3,-0.03,-0.37,-52.62,6044.67
2860383,827,840,122,122,812.21,6033.44,72.62,8.24,0,1,14.38,81.14,36.08,0.916504,-0.080078,0.152344,-2.110525,0.798686,-0.175024,7.44,-0.38,8237,8722,3658,4030,0,10,-0.04,-0.02,-0.01,41.85,5.66,0.37,0.26,-2.62,-9.32,-0.06,7.01,0.5,-0.94,-2.53,0.4,0.15,0.07,0.07,41.92,5.72,0.27,43.963151,-89.08684,3,16,47:47.4,-0.07,-0.38,-54.87,6044.58
2860403,827,839.5,127,122,811.96,6041.42,72.6,8.24,0,1,14.38,81.1,36.08,1.282471,0.057129,0.140381,-1.996084,-0.940816,-0.785375,7.45,-0.4,8235,8728,3659,4030,0,7,0.01,0,-0.01,41.83,5.68,0.37,0.1,1.26,-9.22,-0.08,7.02,0.5,-1.1,1.34,0.5,0.15,0.07,0.07,41.92,5.72,0.27,43.963159,-89.086839,3,16,47:47.4,0.28,-0.38,-54.14,6044.47
2860423,832,839,117,122,811.96,6041.42,72.58,8.25,0,1,14.38,81.07,36.08,0.905273,-0.155273,0.154785,1.124338,-0.933186,-0.922705,7.48,-0.42,8235,8728,3659,4030,0,27,0.01,0,-0.01,41.83,5.68,0.37,0.1,1.26,-9.22,-0.08,7.02,0.5,-1.1,1.34,0.5,0.15,0.07,0.07,41.92,5.72,0.27,43.963159,-89.086839,3,36,47:47.4,-0.09,-0.38,-55.1,6044.44
2860444,837,838.5,122,122,811.96,6041.42,72.55,8.25,0,1,14.38,81.05,36.08,0.960205,-0.071777,0.17041,-1.16448,1.195415,-0.3505,7.49,-0.45,8235,8728,3659,4030,0,48,0.01,0,-0.01,41.83,5.68,0.37,0.1,1.26,-9.22,-0.08,7.02,0.5,-1.1,1.34,0.5,0.15,0.07,0.07,41.92,5.72,0.27,43.963159,-89.086839,3,57,47:47.4,-0.03,-0.39,-56.08,6044.36
2860463,827,838,122,122,811.96,6041.42,72.53,8.26,0,1,14.31,81.01,36.08,1.222168,0.041992,0.133545,-1.385733,0.081523,-0.686193,7.48,-0.46,8235,8726,3655,4034,0,12,-0.02,-0.01,-0.01,41.78,5.67,0.37,0.5,0.75,-10.73,-0.12,7.03,0.49,-0.7,0.83,-1,0.15,0.07,0.07,41.92,5.72,0.27,43.963181,-89.086835,3,12,47:47.5,0.22,-0.38,-54.45,6044.31
2860483,822,837.5,117,122,812.21,6033.44,72.51,8.26,0,1,14.31,80.98,36.08,0.924072,-0.148193,0.064941,0.613169,-0.88741,-0.281835,7.51,-0.47,8235,8730,3657,4034,0,14,0.02,0.01,-0.02,41.76,5.67,0.37,0.4,0.45,-8.95,-0.13,7.04,0.49,-0.8,0.53,0.77,0.15,0.07,0.07,41.92,5.72,0.27,43.963189,-89.086833,3,14,47:47.5,-0.09,-0.41,-58.62,6044.18
2860503,832,836.5,122,122,812.33,6029.45,72.46,8.27,0,1,14.31,80.95,36.08,1.054932,0.074219,0.084717,-1.149222,0.234111,-0.030065,7.51,-0.47,8239,8724,3656,4035,0,7,0.01,0.01,-0.01,41.75,5.66,0.37,1.23,-0.86,-9.09,-0.14,7.05,0.49,0.02,-0.78,0.64,0.15,0.07,0.07,41.92,5.72,0.27,43.963196,-89.086832,3,16,47:47.5,0.05,-0.43,-61.28,6043.99
2860523,827,836,122,122,812.21,6033.44,72.44,8.27,0,1,14.31,80.9,36.08,1.095215,0.016357,0.148926,-1.500174,0.203593,-0.655676,7.52,-0.48,8239,8724,3656,4035,0,27,-0.02,0.01,-0.01,41.73,5.67,0.38,0.1,0.26,-10.4,-0.15,7.05,0.48,-1.1,0.34,-0.67,0.15,0.07,0.07,41.92,5.72,0.27,43.963204,-89.08683,3,16,47:47.5,0.1,-0.44,-62.49,6043.86
2860543,827,835.5,117,122,811.96,6041.42,72.42,8.27,0,1,14.31,80.89,36.08,0.968994,-0.027832,0.148193,-0.653311,0.691875,-0.449682,7.53,-0.51,8239,8724,3656,4035,0,47,-0.03,0.01,-0.01,41.71,5.66,0.38,0.03,-0.05,-8.49,-0.16,7.05,0.47,-1.17,0.03,1.23,0.15,0.07,0.07,41.92,5.72,0.27,43.963211,-89.086829,3,16,47:47.5,-0.02,-0.45,-65.04,6043.74
2860563,832,835,117,122,812.21,6033.44,72.4,8.28,0,1,14.31,80.85,36.08,1.206787,-0.054199,0.13623,0.323252,-0.216023,-0.503088,7.51,-0.52,8237,8720,3658,4045,0,6,0.02,0.01,-0.01,41.69,5.66,0.38,0.07,0.37,-9.24,-0.17,7.06,0.47,-1.13,0.45,0.49,0.15,0.07,0.07,41.92,5.72,0.27,43.963219,-89.086828,3,16,47:47.5,0.2,-0.46,-65.97,6043.6
2860583,832,834.5,127,122,811.96,6041.42,72.37,8.28,0,1,14.31,80.84,36.08,0.888916,0.030029,0.122314,-0.699087,0.150188,-0.98374,7.54,-0.54,8237,8720,3658,4045,0,27,-0.02,0,-0.01,41.68,5.66,0.38,0.06,-1.33,-11.31,-0.18,7.05,0.47,-1.14,-1.25,-1.59,0.15,0.07,0.07,41.76,5.7,0.34,43.963226,-89.086826,3,17,47:47.6,-0.11,-0.5,-70.87,6043.49
2860603,822,834,117,122,811.96,6041.42,72.35,8.29,0,1,14.31,80.81,36.08,0.965576,-0.218018,0.16748,0.422434,0.806316,0.183558,7.54,-0.53,8235,8720,3653,4040,0,10,-0.04,-0.02,-0.01,41.66,5.65,0.38,-0.5,-0.61,-9.14,-0.19,7.06,0.44,-1.71,-0.53,0.58,0.15,0.07,0.07,41.76,5.7,0.34,43.963234,-89.086825,3,15,47:47.6,-0.02,-0.51,-72.25,6043.43
2860623,832,833.5,122,122,811.96,6041.42,72.33,8.29,0,1,14.31,80.79,36.08,1.16626,0.030029,0.077148,1.055673,0.211223,-0.426794,7.52,-0.55,8235,8720,3653,4040,0,30,0.01,0.01,0,41.64,5.66,0.38,0.3,0.47,-9.67,-0.2,7.07,0.44,-0.9,0.55,0.05,0.15,0.07,0.07,41.76,5.7,0.34,43.963241,-89.086823,3,16,47:47.6,0.15,-0.5,-72.01,6043.39
2860643,827,832.5,112,122,812.21,6033.44,72.28,8.29,0,1,14.31,80.75,36.08,0.88623,-0.043945,0.081299,2.764658,-0.269429,-0.411535,7.52,-0.56,8235,8720,3653,4040,0,50,0.01,0.01,-0.01,41.63,5.65,0.39,0.64,0,-9.59,-0.21,7.07,0.42,-0.56,0.07,0.14,0.15,0.07,0.07,41.76,5.7,0.34,43.963249,-89.086822,3,16,47:47.6,-0.12,-0.53,-74.98,6043.3
2860663,827,831.5,117,122,812.21,6033.44,72.24,8.3,0,1,14.31,80.7,36.08,0.907471,-0.013184,0.10376,1.879648,1.584514,-0.487829,7.52,-0.58,8235,8720,3653,4040,0,70,-0.05,-0.01,0,41.61,5.64,0.39,0.2,-0.94,-10.05,-0.22,7.07,0.39,-1.01,-0.87,-0.32,0.15,0.07,0.07,41.76,5.7,0.34,43.963256,-89.08682,3,16,47:47.6,-0.09,-0.53,-75.01,6043.21
2860683,827,830.5,112,121.5,811.72,6049.41,72.19,8.3,0,1,14.31,80.67,36.08,1.134277,-0.068848,0.146729,-0.515982,-0.360982,-0.274206,7.5,-0.59,8235,8720,3656,4041,0,16,-0.03,0.03,0,41.6,5.64,0.38,0.4,0.08,-8.89,-0.22,7.08,0.37,-0.8,0.14,0.84,0.15,0.07,0.07,41.76,5.7,0.34,43.963264,-89.086819,3,16,47:47.7,0.14,-0.53,-75.25,6043.21
2860703,822,830,122,121,811.72,6049.41,72.17,8.3,0,1,14.31,80.62,36.08,0.908203,-0.000244,0.074219,2.268747,-0.422017,-0.442053,7.51,-0.6,8235,8720,3656,4041,0,37,0.01,-0.02,-0.01,41.58,5.64,0.39,0.14,0.2,-9.98,-0.23,7.08,0.35,-1.07,0.26,-0.26,0.15,0.07,0.07,41.76,5.7,0.34,43.963271,-89.086818,3,17,47:47.7,-0.1,-0.53,-75.45,6043.26
2860723,813,829.5,122,121,811.96,6041.42,72.15,8.3,0,1,14.31,80.58,36.08,0.929688,0.008789,0.123535,1.681284,1.180156,-0.068212,7.52,-0.62,8239,8717,3657,4039,0,13,-0.02,-0.01,0,41.57,5.63,0.39,0.52,-1.27,-10.06,-0.23,7.08,0.32,-0.69,-1.22,-0.33,0.15,0.07,0.07,41.76,5.7,0.34,43.963279,-89.086816,3,15,47:47.7,-0.07,-0.53,-74.92,6043.22
2860743,817,829,131,121,811.72,6049.41,72.12,8.3,0,1,14.31,80.57,36.08,1.003906,0.013184,0.148438,0.513986,-0.51357,-0.136877,7.52,-0.62,8239,8717,3657,4039,0,33,-0.04,0.02,0,41.55,5.64,0.39,0.41,-0.11,-9.82,-0.24,7.09,0.29,-0.8,-0.06,-0.09,0.15,0.07,0.07,41.76,5.7,0.34,43.963286,-89.086815,3,16,47:47.7,0.01,-0.53,-75.1,6043.26
2860763,827,828.5,136,121,811.72,6049.41,72.1,8.3,0,1,14.31,80.54,36.08,1.048828,-0.065918,0.092041,1.490549,-0.1321,-0.136877,7.53,-0.62,8239,8717,3657,4039,0,53,-0.01,-0.01,-0.01,41.53,5.63,0.4,1.03,0.71,-9.91,-0.24,7.09,0.28,-0.18,0.76,-0.19,0.15,0.07,0.07,41.76,5.7,0.34,43.963294,-89.086813,3,16,47:47.7,0.04,-0.53,-75.66,6043.24
2860783,827,828,131,121,812.21,6033.44,72.08,8.3,0,1,14.31,80.5,36.08,0.95459,-0.004395,0.116943,1.612619,1.294597,0.130152,7.53,-0.62,8239,8717,3651,4034,0,16,0,0.02,0,41.52,5.63,0.4,0.85,-0.26,-9.23,-0.24,7.1,0.26,-0.36,-0.22,0.5,0.15,0.07,0.07,41.59,5.66,0.34,43.963301,-89.086812,3,16,47:47.8,-0.05,-0.53,-75.63,6043.19
2860803,827,827.5,122,121,811.96,6041.42,72.05,8.31,0,1,14.31,80.48,36.08,0.98584,0.044678,0.14209,1.09382,-0.444905,-0.609899,7.53,-0.62,8239,8717,3651,4034,0,36,-0.04,0.02,0,41.5,5.63,0.39,-0.03,-0.07,-10.67,-0.25,7.09,0.24,-1.24,-0.03,-0.95,0.15,0.07,0.07,41.59,5.66,0.34,43.963309,-89.086811,3,16,47:47.8,-0.01,-0.55,-78.09,6043.13
2860824,822,827,131,121,811.72,6049.41,72.03,8.31,0,1,14.31,80.47,36.08,1.117432,-0.060303,0.156006,1.650766,-1.650349,-0.09873,7.54,-0.63,8233,8713,3647,4032,0,7,-0.03,-0.01,-0.01,41.48,5.63,0.41,0.43,0.45,-9.58,-0.25,7.1,0.21,-0.78,0.49,0.14,0.15,0.07,0.07,41.59,5.66,0.34,43.963316,-89.086809,3,17,47:47.8,0.12,-0.55,-78.69,6043.08
2860843,817,827,112,121,811.72,6049.41,72.03,8.31,0,1,14.31,80.44,36.08,0.899658,-0.047852,0.134277,1.688913,0.951274,0.252222,7.54,-0.61,8233,8713,3647,4032,0,26,0.02,0.03,0,41.47,5.63,0.41,0.57,-0.1,-8.29,-0.25,7.11,0.21,-0.64,-0.07,1.43,0.15,0.07,0.07,41.59,5.66,0.34,43.963324,-89.086808,3,16,47:47.8,-0.1,-0.55,-78.44,6043.06
2860863,817,827,122,121,812.21,6033.44,72.03,8.31,0,1,14.31,80.42,36.08,0.959717,0.112305,0.160645,0.117258,-0.566975,-0.617529,7.54,-0.62,8233,8711,3650,4033,0,4,-0.01,0,0.01,41.45,5.63,0.4,0.12,0.11,-11.32,-0.25,7.1,0.2,-1.09,0.14,-1.6,0.15,0.07,0.07,41.59,5.66,0.34,43.963331,-89.086806,3,16,47:47.8,-0.03,-0.57,-81.71,6042.99
2860883,813,826.5,127,121.5,812.21,6033.44,72.01,8.31,0,1,14.31,80.42,36.08,0.980469,-0.088379,0.197266,-0.805899,1.050456,0.259852,7.53,-0.6,8233,8711,3650,4033,0,24,-0.04,-0.01,-0.01,41.43,5.61,0.42,-0.7,-0.83,-8.88,-0.24,7.11,0.17,-1.91,-0.8,0.84,0.15,0.07,0.07,41.59,5.66,0.34,43.963338,-89.086805,3,15,47:47.9,0,-0.58,-82.68,6042.93
2860903,817,826,117,122,811.72,6049.41,71.99,8.32,0,1,14.31,80.42,36.08,1.24707,-0.051514,0.085938,-0.683828,-0.51357,-0.037695,7.5,-0.59,8233,8711,3650,4033,0,44,0.02,0.02,0,41.42,5.62,0.42,0.31,0.12,-8.63,-0.24,7.11,0.17,-0.91,0.15,1.09,0.15,0.07,0.07,41.59,5.66,0.34,43.963346,-89.086804,3,12,47:47.9,0.23,-0.57,-80.49,6042.93
2860923,822,825.5,122,122,812.21,6033.44,71.96,8.32,0,1,14.31,80.37,36.09,0.936768,0.06543,0.117676,0.84205,0.058635,-0.205541,7.49,-0.58,8233,8711,3650,4033,0,64,0.01,-0.02,0,41.4,5.61,0.42,0.03,-0.63,-11.69,-0.24,7.1,0.16,-1.18,-0.61,-1.97,0.15,0.07,0.07,41.59,5.66,0.34,43.963353,-89.086802,3,16,47:47.9,-0.06,-0.6,-84.56,6042.87
2860944,817,825,127,122,811.96,6041.42,71.94,8.33,0,1,14.31,80.35,36.09,1.089111,-0.085693,0.136475,0.025705,0.485881,0.069117,7.49,-0.56,8235,8713,3650,4038,0,19,-0.04,-0.02,0,41.39,5.61,0.43,0.15,-0.47,-9.1,-0.24,7.11,0.14,-1.06,-0.45,0.62,0.15,0.07,0.07,41.59,5.66,0.34,43.963361,-89.086801,3,17,47:47.9,0.09,-0.59,-83.66,6042.81
2860963,822,824.5,122,122,811.96,6041.42,71.92,8.33,0,1,14.31,80.33,36.09,1.084229,-0.010498,0.059082,0.613169,-0.50594,0.092005,7.46,-0.56,8235,8713,3650,4038,0,39,-0.01,0.04,0.01,41.37,5.61,0.43,0.43,-0.14,-8.7,-0.24,7.12,0.13,-0.78,-0.12,1.03,0.15,0.07,0.07,41.59,5.66,0.34,43.963368,-89.086799,3,17,47:47.9,0.07,-0.59,-83.74,6042.77
2860983,817,823.5,112,122,811.72,6049.41,71.87,8.33,0,1,14.31,80.32,36.09,0.923828,-0.069092,0.038574,2.200083,-0.628011,-0.106359,7.47,-0.55,8235,8713,3648,4037,0,14,0.02,0,-0.01,41.36,5.61,0.43,1.15,0.77,-11.19,-0.24,7.11,0.13,-0.07,0.79,-1.47,0.15,0.07,0.07,41.43,5.61,0.32,43.963376,-89.086798,3,14,47:48.0,-0.09,-0.61,-86.64,6042.73
2861003,817,822.5,122,122,811.96,6041.42,71.83,8.34,0,1,14.31,80.25,36.09,1.010742,-0.113281,0.198242,-1.637503,1.393779,0.389551,7.47,-0.52,8235,8713,3648,4037,0,34,-0.04,-0.02,0.01,41.34,5.6,0.43,0.13,-2.13,-9.12,-0.23,7.12,0.11,-1.08,-2.11,0.6,0.15,0.07,0.07,41.43,5.61,0.32,43.963383,-89.086797,3,16,47:48.0,0.03,-0.62,-87.4,6042.73
2861023,822,821.5,122,122,811.72,6049.41,71.78,8.34,0,1,14.31,80.21,36.08,1.299316,-0.012939,0.094971,-0.103995,-1.01711,-0.068212,7.45,-0.52,8237,8711,3651,4037,0,6,-0.01,0.02,0.01,41.32,5.61,0.43,-0.07,1.2,-9.18,-0.24,7.12,0.1,-1.28,1.22,0.54,0.15,0.07,0.07,41.43,5.61,0.32,43.963391,-89.086795,3,16,47:47.0,0.29,-0.6,-85.17,6042.75
2861043,822,821,122,122,811.72,6049.41,71.76,8.35,0,1,14.31,80.16,36.08,0.95166,-0.084717,0.164551,0.529245,-0.330464,0.267481,7.46,-0.51,8237,8711,3651,4037,0,26,0.06,-0.02,-0.01,41.31,5.6,0.44,0.96,0.55,-10.17,-0.23,7.12,0.1,-0.26,0.57,-0.45,0.15,0.07,0.07,41.43,5.61,0.32,43.963398,-89.086794,3,16,47:47.0,-0.04,-0.61,-86.86,6042.77
2861063,817,820,122,122,811.72,6049.41,71.71,8.35,0,1,14.31,80.14,36.08,1.048584,-0.003906,0.135986,1.788095,0.981792,0.092005,7.45,-0.49,8237,8711,3651,4037,0,46,-0.01,0.01,0.01,41.29,5.6,0.44,1.51,-0.53,-9.65,-0.23,7.13,0.08,0.3,-0.51,0.07,0.15,0.07,0.07,41.43,5.61,0.32,43.963405,-89.086793,3,16,47:47.0,0.05,-0.6,-85.38,6042.79
2861083,808,819.5,122,122,811.72,6049.41,71.69,8.35,0,1,14.31,80.09,36.08,1.185791,0.060059,0.138672,-1.057669,-0.216023,0.000452,7.44,-0.48,8237,8709,3650,4038,0,13,-0.04,0.03,0.01,41.27,5.6,0.44,0.3,-0.04,-10.34,-0.23,7.13,0.07,-0.92,-0.03,-0.62,0.15,0.07,0.07,41.43,5.61,0.32,43.963413,-89.086791,3,17,47:47.1,0.19,-0.6,-84.65,6042.8
2861103,808,819,131,122,811.96,6041.42,71.67,8.36,0,1,14.31,80.05,36.08,1.019531,-0.151367,0.071045,0.651316,-0.658528,0.450586,7.45,-0.46,8237,8709,3650,4038,0,32,-0.01,0.01,0,41.26,5.59,0.45,-0.21,0.85,-8.96,-0.23,7.13,0.05,-1.42,0.85,0.76,0.15,0.07,0.07,41.43,5.61,0.32,43.96342,-89.08679,3,15,47:47.1,0.01,-0.6,-85.25,6042.8
2861123,808,818.5,127,122,811.96,6041.42,71.64,8.36,0,1,14.31,80.02,36.09,1.000977,0.051758,0.102539,1.627878,0.74528,-0.022436,7.45,-0.45,8233,8709,3644,4032,0,3,0.02,0.02,0,41.24,5.59,0.45,0.98,-0.44,-9.33,-0.22,7.15,0.05,-0.24,-0.44,0.39,0.15,0.07,0.07,41.43,5.61,0.32,43.963428,-89.086788,3,16,47:47.1,0,-0.6,-85.04,6042.78
2861143,808,818,136,122,811.96,6041.42,71.62,8.36,0,1,14.31,80,36.09,0.854736,0.051025,0.146484,1.437143,0.424846,-0.205541,7.46,-0.43,8233,8709,3644,4032,0,23,-0.02,0.01,0,41.22,5.59,0.44,-0.24,-0.69,-10.57,-0.22,7.14,0.04,-1.46,-0.68,-0.85,0.15,0.07,0.07,41.43,5.61,0.32,43.963435,-89.086787,3,16,47:47.1,-0.14,-0.61,-86.38,6042.8
2861163,808,817.5,127,122,811.72,6049.41,71.6,8.37,0,1,14.31,79.98,36.09,1.039551,-0.088379,0.183594,-0.432058,1.203044,0.381922,7.47,-0.41,8233,8709,3644,4032,0,43,-0.05,0.01,0,41.21,5.58,0.45,0.06,0.25,-8.65,-0.21,7.15,0.02,-1.16,0.25,1.07,0.15,0.07,0.07,41.43,5.61,0.32,43.963443,-89.086786,3,16,47:47.1,0.05,-0.61,-86.25,6042.78
2861183,808,817.5,127,122,811.72,6049.41,71.6,8.37,0,1,14.31,79.96,36.09,1.159424,-0.020264,0.124756,0.163034,-0.055806,0.130152,7.45,-0.38,8233,8709,3641,4031,0,1,0.03,0.03,0,41.19,5.59,0.45,-0.1,-0.06,-9.39,-0.21,7.16,0.03,-1.32,-0.06,0.33,0.15,0.07,0.07,41.43,5.61,0.32,43.96345,-89.086784,3,16,47:47.2,0.16,-0.6,-84.61,6042.82
2861204,813,817.5,136,122,811.72,6049.41,71.6,8.37,0,1,14.31,79.96,36.09,0.895508,0.063965,0.116211,0.513986,0.188335,-0.113989,7.45,-0.36,8233,8709,3641,4031,0,22,0.02,-0.01,0,41.17,5.57,0.45,0.26,-0.48,-11.06,-0.21,7.15,0.04,-0.95,-0.47,-1.33,0.15,0.07,0.07,41.28,5.54,0.32,43.963457,-89.086783,3,17,47:48.2,-0.1,-0.61,-86.73,6042.88
2861223,808,817.1,127,122.5,811.72,6049.41,71.58,8.38,0,1,14.31,79.96,36.09,1.006348,-0.07666,0.171143,-0.836416,1.492961,0.587916,7.45,-0.33,8233,8709,3641,4031,0,41,-0.03,-0.03,0,41.16,5.56,0.45,0.27,-0.66,-9.58,-0.2,7.16,0.02,-0.95,-0.65,0.15,0.15,0.07,0.07,41.28,5.54,0.32,43.963465,-89.086782,3,16,47:48.2,0.02,-0.6,-84.26,6042.9
2861243,803,815.7,127,123,811.72,6049.41,71.51,8.38,0,1,14.31,79.94,36.09,1.075928,0.021729,0.09668,0.491098,0.348552,0.214075,7.43,-0.32,8237,8707,3643,4026,0,18,0,0.03,0.01,41.14,5.57,0.45,0.1,-0.09,-9.49,-0.2,7.16,0.03,-1.13,-0.09,0.24,0.15,0.07,0.07,41.28,5.54,0.32,43.963472,-89.08678,3,16,47:48.2,0.07,-0.59,-83.18,6042.91
2861263,808,814.8,131,123.5,811.72,6049.41,71.47,8.39,0,1,14.31,79.86,36.09,0.911377,-0.027832,0.082275,0.872568,-0.330464,0.206446,7.44,-0.3,8237,8707,3643,4026,0,38,0.04,-0.02,0,41.13,5.56,0.46,1.1,0.83,-9.73,-0.19,7.16,0.03,-0.12,0.84,-0.01,0.15,0.07,0.07,41.28,5.54,0.32,43.96348,-89.086779,3,16,47:48.2,-0.09,-0.6,-84.27,6042.93
2861283,798,813.9,127,124,811.72,6049.41,71.43,8.4,0,1,14.31,79.82,36.09,0.940186,-0.034668,0.119385,1.078562,1.714213,0.145411,7.43,-0.27,8235,8707,3643,4031,0,17,0,-0.01,0,41.11,5.57,0.46,1.22,-0.1,-9.88,-0.19,7.17,0.04,-0.01,-0.09,-0.15,0.15,0.07,0.07,41.28,5.54,0.32,43.963487,-89.086777,3,16,47:48.3,-0.06,-0.59,-82.68,6042.91
2861303,803,813,127,124.5,811.72,6049.41,71.39,8.41,0,1,14.31,79.77,36.09,0.995117,0.02002,0.093506,0.018076,0.035747,0.221705,7.44,-0.25,8235,8707,3643,4031,0,37,-0.03,0.03,0.01,41.09,5.56,0.46,0.6,-0.37,-10.09,-0.18,7.17,0.03,-0.62,-0.37,-0.37,0.15,0.07,0.07,41.28,5.54,0.32,43.963494,-89.086776,3,16,47:48.3,-0.01,-0.6,-84.33,6042.95
2861324,808,812.1,136,125,811.96,6041.42,71.35,8.42,0,1,14.31,79.71,36.09,1.072021,-0.038086,0.065674,-0.058218,-1.177327,0.320887,7.45,-0.22,8235,8709,3642,4027,0,7,0,0,0,41.08,5.56,0.47,0.05,0.29,-9.44,-0.18,7.17,0.04,-1.17,0.29,0.29,0.15,0.07,0.07,41.28,5.54,0.32,43.963502,-89.086775,3,16,47:48.3,0.06,-0.58,-81.69,6043.02
2861343,808,811.2,131,125.5,811.72,6049.41,71.31,8.43,0,1,14.31,79.68,36.09,0.928223,0.016602,0.151855,2.345041,1.462443,0.221705,7.46,-0.2,8235,8709,3642,4027,0,26,0.01,0.03,0,41.06,5.56,0.47,0.09,0.1,-8.2,-0.17,7.18,0.04,-1.13,0.1,1.52,0.15,0.07,0.07,41.28,5.54,0.32,43.963509,-89.086773,3,16,47:48.3,-0.06,-0.56,-79.52,6043.06
2861363,798,810.3,127,126,811.96,6041.42,71.27,8.45,0,1,14.31,79.62,36.09,1.016846,-0.020264,0.143066,-0.103995,-0.681416,0.038599,7.47,-0.17,8235,8709,3642,4027,0,46,0.01,-0.01,0,41.05,5.55,0.46,0.4,-0.38,-12.01,-0.17,7.17,0.05,-0.82,-0.37,-2.29,0.15,0.07,0.07,41.28,5.54,0.32,43.963517,-89.086772,3,15,47:48.3,0.02,-0.58,-81.23,6043.08
2861383,803,809.4,131,126.5,811.72,6049.41,71.22,8.46,0,1,14.31,79.59,36.09,0.856689,0.009033,0.123291,0.239328,0.913127,0.381922,7.48,-0.15,8233,8707,3643,4028,0,7,-0.01,-0.02,0,41.03,5.55,0.48,0.34,-0.88,-9.15,-0.16,7.18,0.04,-0.88,-0.87,0.57,0.15,0.07,0.07,41.12,5.54,0.38,43.963524,-89.086771,3,16,47:48.4,-0.14,-0.57,-80.82,6043.1
2861403,793,808.5,131,127,811.72,6049.41,71.18,8.48,0,1,14.31,79.54,36.09,1.097168,-0.001709,0.156982,0.735239,0.981792,0.145411,7.48,-0.12,8233,8707,3643,4028,0,27,-0.01,0.01,0.01,41.02,5.55,0.47,0.3,0.44,-9.03,-0.16,7.18,0.03,-0.93,0.45,0.69,0.15,0.07,0.07,41.12,5.54,0.38,43.963531,-89.086769,3,16,47:48.4,0.1,-0.55,-77.82,6043.12
2861423,803,808,131,127.4,811.96,6041.42,71.16,8.49,0,1,14.31,79.48,36.09,1.030029,-0.031494,0.11377,0.048593,-0.772969,-0.014807,7.51,-0.1,8233,8707,3643,4028,0,47,0.03,-0.01,0,41,5.55,0.47,-0.13,0.05,-11.05,-0.15,7.17,0.05,-1.35,0.06,-1.33,0.15,0.07,0.07,41.12,5.54,0.38,43.963539,-89.086768,3,16,47:48.4,0.03,-0.56,-79.31,6043.16
2861444,803,807.5,136,127.8,811.72,6049.41,71.14,8.51,0,1,14.31,79.47,36.08,0.926758,-0.061279,0.126709,-0.531241,0.882609,0.450586,7.53,-0.06,8233,8709,3639,4033,0,14,0.01,-0.01,0.01,40.99,5.54,0.48,1.23,-0.88,-8.84,-0.15,7.19,0.05,0,-0.87,0.88,0.15,0.07,0.07,41.12,5.54,0.38,43.963546,-89.086766,3,18,47:48.4,-0.07,-0.56,-78,6043.21
2861463,808,807,127,128.2,811.72,6049.41,71.11,8.52,0,1,14.31,79.44,36.08,1.116455,0.055176,0.099609,-1.225515,-0.483052,0.107264,7.53,-0.04,8233,8709,3639,4033,0,34,-0.01,0.02,0.01,40.97,5.54,0.47,0.56,0.13,-9.55,-0.14,7.19,0.05,-0.67,0.14,0.17,0.15,0.07,0.07,41.12,5.54,0.38,43.963553,-89.086765,3,17,47:48.4,0.11,-0.54,-76.23,6043.23
2861483,813,806.5,131,128.6,811.47,6057.4,71.09,8.54,0,1,14.31,79.43,36.08,0.980225,0.01001,0.120605,0.689463,-0.582234,-0.281835,7.53,-0.02,8233,8709,3639,4033,0,53,-0.01,0.02,0.01,40.97,5.54,0.47,0.56,0.13,-9.55,-0.14,7.19,0.05,-0.67,0.14,0.17,0.15,0.07,0.07,41.12,5.54,0.38,43.963553,-89.086765,3,36,47:48.4,-0.02,-0.54,-76.17,6043.29
2861503,803,806,127,129,811.72,6049.41,71.07,8.55,0,1,14.25,79.38,36.08,0.929199,-0.039062,0.172119,-0.371023,0.630839,0.381922,7.53,0.01,8233,8707,3637,4031,0,4,0.01,0.01,0.01,40.94,5.53,0.48,0.88,-1.79,-8.79,-0.13,7.2,0.06,-0.35,-1.78,0.93,0.15,0.07,0.07,41.12,5.54,0.38,43.963568,-89.086762,3,4,47:48.5,-0.06,-0.53,-74.41,6043.35
2861523,798,805.5,131,129.4,811.96,6041.42,71.04,8.57,0,1,14.25,79.34,36.08,1.132568,0.041504,0.124512,-1.881643,-1.474873,-0.022436,7.53,0.02,8233,8707,3637,4031,0,24,-0.02,0.01,0.01,40.92,5.53,0.48,-0.17,0.43,-10.57,-0.13,7.2,0.06,-1.39,0.44,-0.84,0.15,0.07,0.07,41.12,5.54,0.38,43.963576,-89.086761,3,11,47:48.5,0.13,-0.53,-74.63,6043.32
2861543,793,805,127,129.8,811.72,6049.41,71.02,8.58,0,1,14.25,79.33,36.08,0.911377,-0.030029,0.155762,-0.439688,0.867351,0.038599,7.56,0.04,8235,8703,3641,4036,0,18,0.03,-0.02,0,40.91,5.53,0.48,0.53,0.91,-9.15,-0.13,7.2,0.06,-0.7,0.92,0.57,0.15,0.07,0.07,41.12,5.54,0.38,43.963583,-89.08676,3,16,47:48.5,-0.08,-0.53,-74.47,6043.32
2861563,803,804.5,131,130.2,811.96,6041.42,71,8.6,0,1,14.25,79.29,36.08,1.041016,-0.011963,0.128418,1.72706,0.74528,-0.136877,7.55,0.06,8235,8703,3641,4036,0,38,0.01,0.02,0,40.89,5.53,0.48,0.63,0.12,-8.9,-0.12,7.21,0.06,-0.6,0.14,0.82,0.15,0.07,0.07,41.12,5.54,0.38,43.96359,-89.086758,3,16,47:48.5,0.04,-0.51,-72.04,6043.32
2861583,803,804,122,130.6,811.72,6049.41,70.97,8.61,0,1,14.25,79.28,36.08,1.165039,0.072754,0.173584,-1.225515,0.073894,-0.068212,7.55,0.08,8235,8703,3641,4036,0,59,-0.03,0.01,0,40.88,5.52,0.47,0.51,-1.12,-11.66,-0.12,7.2,0.07,-0.71,-1.11,-1.93,0.15,0.07,0.07,40.97,5.54,0.36,43.963598,-89.086757,3,17,47:48.6,0.17,-0.52,-72.58,6043.35
2861603,798,803.5,122,131,812.21,6033.44,70.95,8.63,0,1,14.25,79.23,36.08,1.006836,-0.169678,0.124756,-0.2871,0.264629,0.412439,7.56,0.1,8231,8705,3636,4029,0,15,0,-0.01,0,40.86,5.52,0.48,-0.1,0.49,-9.09,-0.11,7.21,0.06,-1.32,0.5,0.63,0.15,0.07,0.07,40.97,5.54,0.36,43.963605,-89.086755,3,15,47:48.6,0.01,-0.52,-72.88,6043.3
2861623,813,803,127,131,811.96,6041.42,70.93,8.64,0,1,14.25,79.22,36.08,1.101318,0.029785,0.09668,0.864939,-0.269429,-0.014807,7.55,0.1,8231,8705,3636,4029,0,35,0.01,0.02,0,40.85,5.52,0.48,0.87,-0.23,-9.21,-0.11,7.22,0.06,-0.36,-0.21,0.51,0.15,0.07,0.07,40.97,5.54,0.36,43.963612,-89.086754,3,16,47:48.6,0.09,-0.52,-73.47,6043.24
2861643,808,803,127,130.6,812.21,6033.44,70.93,8.65,0,1,14.25,79.18,36.08,1.018066,0.013916,0.152832,-0.653311,-0.956075,0.03097,7.54,0.12,8231,8707,3642,4038,0,6,0,0,0,40.83,5.51,0.48,0.44,-0.4,-10.52,-0.11,7.21,0.06,-0.79,-0.39,-0.8,0.15,0.07,0.07,40.97,5.54,0.36,43.96362,-89.086753,3,16,47:48.6,0.02,-0.54,-76.18,6043.18
2861663,803,803,127,130.2,811.72,6049.41,70.93,8.66,0,1,14.25,79.2,36.08,0.940918,-0.061768,0.123535,-0.042959,0.936015,0.046229,7.55,0.13,8231,8707,3642,4038,0,26,-0.04,-0.01,0.01,40.82,5.51,0.48,0.31,-0.82,-9.27,-0.1,7.22,0.05,-0.92,-0.81,0.45,0.15,0.07,0.07,40.97,5.54,0.36,43.963627,-89.086751,3,16,47:48.6,-0.06,-0.55,-76.37,6043.09
2861683,793,803,122,129.8,811.96,6041.42,70.93,8.67,0,1,14.25,79.19,36.08,1.130371,-0.006348,0.129639,-0.4168,-0.483052,-0.052954,7.52,0.13,8231,8707,3642,4038,0,46,0,0.03,0,40.8,5.51,0.48,0.6,-0.07,-8.92,-0.1,7.22,0.04,-0.63,-0.06,0.8,0.15,0.07,0.07,40.97,5.54,0.36,43.963634,-89.08675,3,16,47:48.7,0.13,-0.55,-77.31,6043.05
2861704,798,803,136,129.4,812.21,6033.44,70.93,8.67,0,1,14.25,79.18,36.08,0.962158,0.001465,0.119629,0.964121,-0.292317,-0.258947,7.5,0.13,8231,8709,3646,4033,0,19,0.01,-0.01,0,40.78,5.51,0.49,0.1,-0.24,-10.58,-0.1,7.21,0.04,-1.13,-0.24,-0.86,0.15,0.07,0.07,40.97,5.54,0.36,43.963642,-89.086749,3,17,47:48.7,-0.04,-0.57,-79.35,6042.98
2861723,803,803,127,129,812.33,6029.45,70.93,8.68,0,1,14.25,79.17,36.08,0.909668,-0.138428,0.120117,0.254587,0.043376,0.183558,7.5,0.14,8231,8709,3646,4033,0,38,-0.03,-0.02,0,40.77,5.5,0.49,0.37,-0.98,-9.4,-0.1,7.22,0.03,-0.86,-0.97,0.32,0.15,0.07,0.07,40.97,5.54,0.36,43.963649,-89.086747,3,15,47:48.7,-0.09,-0.58,-81.4,6042.83
2861743,793,803,122,128.6,812.21,6033.44,70.93,8.68,0,1,14.25,79.18,36.08,1.062988,0.010986,0.079834,0.132517,-0.208394,0.076746,7.47,0.13,8231,8703,3642,4035,0,5,-0.01,0.02,0.01,40.75,5.5,0.49,0.84,-0.07,-9.48,-0.09,7.23,0.02,-0.39,-0.07,0.24,0.15,0.07,0.07,40.97,5.54,0.36,43.963656,-89.086746,3,15,47:48.7,0.05,-0.6,-83.8,6042.71
2861763,788,803,127,128.2,812.21,6033.44,70.93,8.68,0,1,14.25,79.18,36.08,0.89209,-0.05957,0.116699,2.474741,0.577434,-0.083471,7.46,0.14,8231,8703,3642,4035,0,25,0.01,-0.01,0,40.74,5.5,0.5,0.68,0.59,-9.78,-0.09,7.22,0.01,-0.55,0.59,-0.06,0.15,0.07,0.07,40.97,5.54,0.36,43.963664,-89.086744,3,16,47:48.7,-0.11,-0.62,-86.37,6042.6
2861783,793,802.5,131,127.8,812.33,6029.45,70.9,8.68,0,1,14.25,79.17,36.08,0.936035,0.014893,0.121582,0.002817,1.393779,0.206446,7.44,0.14,8231,8703,3642,4035,0,45,-0.03,0,0,40.72,5.49,0.5,0.13,-1.41,-9.88,-0.09,7.23,0,-1.1,-1.41,-0.16,0.15,0.07,0.07,40.8,5.5,0.41,43.963671,-89.086743,3,16,47:48.8,-0.06,-0.63,-88.4,6042.46
2861803,793,802,131,127.4,812.21,6033.44,70.88,8.67,0,1,14.25,79.15,36.08,1.192627,0.018066,0.137451,-0.470205,-1.093404,0.008082,7.42,0.16,8235,8698,3638,4036,0,10,0,0.03,0,40.7,5.49,0.5,0.51,0.81,-9.3,-0.09,7.23,-0.01,-0.72,0.81,0.42,0.15,0.07,0.07,40.8,5.5,0.41,43.963678,-89.086742,3,16,47:48.8,0.19,-0.65,-91.09,6042.32
2861824,798,801.5,136,127,811.96,6041.42,70.86,8.67,0,1,14.25,79.14,36.08,0.91333,0.04126,0.067871,1.22352,-0.834004,-0.381018,7.4,0.16,8235,8698,3638,4036,0,31,0.02,-0.03,0.01,40.69,5.49,0.51,0.63,-0.29,-9.84,-0.09,7.22,-0.01,-0.61,-0.29,-0.12,0.15,0.07,0.07,40.8,5.5,0.41,43.963686,-89.08674,3,17,47:48.8,-0.1,-0.67,-93.87,6042.28
2861843,793,801,131,127,811.96,6041.42,70.83,8.67,0,1,14.25,79.11,36.08,0.990234,-0.019775,0.113525,-0.386282,0.134929,0.52688,7.39,0.18,8235,8698,3638,4036,0,50,0,-0.01,0,40.68,5.48,0.51,0.7,-0.75,-9.4,-0.08,7.23,-0.01,-0.54,-0.75,0.32,0.15,0.07,0.07,40.8,5.5,0.41,43.963693,-89.086739,3,16,47:48.8,-0.01,-0.67,-93.39,6042.22
2861863,793,800.5,122,127,811.96,6041.42,70.81,8.67,0,1,14.25,79.09,36.08,0.97583,0.035645,0.172119,-0.844046,-0.2618,0.038599,7.37,0.19,8233,8694,3638,4032,0,11,-0.01,0.01,0.01,40.66,5.49,0.51,0.34,0.31,-10.15,-0.08,7.23,-0.01,-0.89,0.31,-0.43,0.15,0.07,0.07,40.8,5.5,0.41,43.9637,-89.086738,3,15,47:48.8,-0.01,-0.68,-95.55,6042.16
2861883,788,799.5,136,127,812.21,6033.44,70.76,8.67,0,1,14.25,79.05,36.08,0.942383,-0.040039,0.115234,0.430063,-0.231282,0.168299,7.35,0.2,8233,8694,3638,4032,0,31,-0.01,0,0,40.64,5.48,0.52,0.51,0.41,-8.96,-0.08,7.24,-0.02,-0.72,0.41,0.76,0.15,0.07,0.07,40.8,5.5,0.41,43.963708,-89.086736,3,16,47:48.9,-0.06,-0.69,-96.13,6042.08
2861903,788,798.5,136,127,812.21,6033.44,70.72,8.67,0,1,14.25,79,36.08,0.997559,-0.001221,0.170166,1.254038,1.965984,0.160669,7.34,0.22,8231,8698,3636,4032,0,9,0.01,0.02,0,40.63,5.48,0.52,0.59,-0.42,-9.5,-0.07,7.25,-0.01,-0.65,-0.42,0.22,0.15,0.07,0.07,40.8,5.5,0.41,43.963715,-89.086735,3,16,47:48.9,0.01,-0.68,-95.52,6042
2861923,793,797.5,131,127.4,811.72,6049.41,70.67,8.67,0,1,14.25,78.97,36.08,0.984131,0.02832,0.118408,0.285105,-0.1321,0.015711,7.33,0.24,8231,8698,3636,4032,0,29,-0.01,0.01,0.01,40.61,5.48,0.52,0.03,-0.57,-11.09,-0.07,7.24,0,-1.21,-0.57,-1.37,0.15,0.07,0.07,40.8,5.5,0.41,43.963722,-89.086733,3,16,47:48.9,-0.02,-0.7,-97.09,6042
2861944,793,796.5,127,127.8,811.72,6049.41,70.62,8.67,0,1,14.25,78.92,36.08,0.984375,-0.033447,0.159424,-1.04241,0.989421,0.336146,7.33,0.28,8231,8698,3636,4032,0,50,-0.02,0,0,40.6,5.47,0.53,0.52,-0.06,-9.37,-0.06,7.25,0,-0.71,-0.06,0.35,0.15,0.07,0.07,40.8,5.5,0.41,43.96373,-89.086732,3,18,47:48.9,-0.01,-0.69,-96.55,6042
2861963,788,795.5,127,128.2,811.72,6049.41,70.58,8.67,0,1,14.25,78.86,36.08,1.016113,-0.019775,0.165283,0.040964,1.538737,0.595545,7.32,0.31,8233,8692,3631,4024,0,11,-0.01,0.03,0.01,40.58,5.47,0.53,0.08,-0.61,-8.64,-0.05,7.26,0,-1.16,-0.61,1.08,0.15,0.07,0.07,40.8,5.5,0.41,43.963737,-89.086731,3,17,47:48.9,0.03,-0.69,-96.21,6041.98
2861983,783,795,127,128.6,811.96,6041.42,70.56,8.68,0,1,14.25,78.8,36.08,0.999756,0.08252,0.215332,-0.2871,0.150188,-0.136877,7.33,0.33,8233,8692,3631,4024,0,30,0.03,-0.01,0,40.57,5.47,0.53,0.26,0.94,-11.1,-0.05,7.25,0.02,-0.98,0.95,-1.38,0.15,0.07,0.07,40.69,5.47,0.41,43.963744,-89.086729,3,15,47:49.0,0.02,-0.71,-98.27,6041.97
2862003,783,794.5,136,129,811.96,6041.42,70.53,8.69,0,1,14.25,78.77,36.08,1.041504,-0.123291,0.172852,-2.247854,0.722392,0.870203,7.33,0.38,8233,8692,3631,4024,0,50,0,-0.02,0,40.55,5.46,0.53,-0.24,-1.3,-8.82,-0.04,7.26,0.03,-1.48,-1.29,0.9,0.15,0.07,0.07,40.69,5.47,0.41,43.963752,-89.086728,3,16,47:49.0,0.05,-0.69,-96.75,6042.01
2862023,793,794,136,129.4,811.72,6049.41,70.51,8.7,0,1,14.25,78.76,36.08,1.190186,0.011963,0.111328,-1.187369,-0.902669,0.297999,7.33,0.41,8235,8688,3630,4026,0,19,0.05,0.01,0.01,40.54,5.47,0.53,0.81,0.67,-9.41,-0.03,7.27,0.05,-0.43,0.68,0.31,0.15,0.07,0.07,40.69,5.47,0.41,43.963759,-89.086727,3,16,47:48.0,0.18,-0.68,-95.32,6042.02
2862043,788,793.5,136,129.8,811.96,6041.42,70.48,8.7,0,1,14.25,78.72,36.08,0.944824,0.003418,0.098389,-0.317618,-0.345723,0.267481,7.34,0.44,8235,8688,3630,4026,0,39,0.04,-0.02,0,40.53,5.46,0.53,0.88,0.14,-10.83,-0.03,7.26,0.07,-0.36,0.15,-1.11,0.15,0.07,0.07,40.69,5.47,0.41,43.963766,-89.086725,3,16,47:48.0,-0.06,-0.7,-97.37,6041.98
2862063,793,793,136,130.2,811.96,6041.42,70.46,8.71,0,1,14.25,78.7,36.08,0.967285,-0.091797,0.122314,0.391916,1.546367,0.503992,7.34,0.48,8235,8690,3634,4022,0,2,0.02,0,0.01,40.51,5.46,0.54,1.34,-0.41,-8.82,-0.02,7.28,0.08,0.09,-0.4,0.9,0.15,0.07,0.07,40.69,5.47,0.41,43.963773,-89.086724,3,16,47:48.0,-0.03,-0.69,-95.85,6041.92
2862083,788,793,136,131.1,811.96,6041.42,70.46,8.72,0,1,14.25,78.67,36.08,1.132568,0.125,0.152588,-1.805349,-0.040547,0.061487,7.33,0.5,8235,8690,3634,4022,0,23,-0.02,0.03,0.01,40.49,5.46,0.53,0.13,-0.55,-10.64,-0.01,7.28,0.1,-1.11,-0.53,-0.92,0.15,0.07,0.07,40.69,5.47,0.41,43.963781,-89.086723,3,17,47:48.1,0.13,-0.7,-97.35,6041.86
2862103,788,792.5,136,132,811.96,6041.42,70.44,8.74,0,1,14.25,78.67,36.08,1.01001,-0.187012,0.124512,-0.905081,0.340922,0.595545,7.34,0.54,8235,8690,3634,4022,0,42,0.02,-0.01,0,40.48,5.45,0.54,0.06,0.67,-9.16,0,7.28,0.11,-1.18,0.69,0.56,0.15,0.07,0.07,40.69,5.47,0.41,43.963788,-89.086721,3,15,47:48.1,0.01,-0.7,-97.45,6041.84
2862123,788,792,146,132.5,812.21,6033.44,70.41,8.75,0,1,14.25,78.63,36.08,0.925049,-0.005615,0.09668,-0.477835,-0.231282,0.305628,7.33,0.56,8233,8688,3633,4021,0,19,0.04,0.01,0.01,40.46,5.46,0.54,0.82,-0.78,-9.23,0.01,7.3,0.13,-0.43,-0.76,0.49,0.15,0.07,0.07,40.69,5.47,0.41,43.963795,-89.08672,3,16,47:48.1,-0.08,-0.72,-99.63,6041.75
2862143,788,791.5,151,133,812.21,6033.44,70.39,8.77,0,1,14.25,78.61,36.08,1.031982,0.032715,0.133789,-1.713797,-1.078145,0.305628,7.33,0.59,8233,8688,3633,4021,0,39,0,0.01,0,40.45,5.45,0.54,0.38,-0.49,-10.62,0.01,7.3,0.13,-0.87,-0.47,-0.9,0.15,0.07,0.07,40.69,5.47,0.41,43.963803,-89.086719,3,16,47:48.1,0.03,-0.74,-102.42,6041.62
2862163,783,791,141,133.5,811.96,6041.42,70.37,8.78,0,1,14.25,78.59,36.08,0.932861,-0.030762,0.12915,-0.432058,1.195415,0.259852,7.35,0.62,8233,8688,3631,4021,0,10,-0.01,0,0.01,40.44,5.45,0.55,0.6,0.38,-8.73,0.02,7.31,0.14,-0.65,0.41,0.99,0.15,0.07,0.07,40.69,5.47,0.41,43.96381,-89.086717,3,12,47:48.1,-0.06,-0.73,-101.64,6041.56
2862183,779,790.5,141,134,812.21,6033.44,70.34,8.8,0,1,14.25,78.55,36.08,1.145752,-0.008057,0.151123,-1.462027,-0.01003,0.198816,7.32,0.65,8233,8688,3631,4021,0,30,0,0.03,0,40.42,5.45,0.54,0.51,0.05,-9.28,0.02,7.32,0.15,-0.74,0.08,0.44,0.15,0.07,0.07,40.51,5.45,0.43,43.963817,-89.086716,3,16,47:49.2,0.15,-0.74,-103.31,6041.45
2862204,779,790,136,134.5,812.21,6033.44,70.32,8.82,0,1,14.25,78.53,36.08,1.086914,0.070557,0.173584,-1.301809,0.49351,0.008082,7.35,0.68,8233,8688,3631,4021,0,51,0.03,0,0,40.4,5.45,0.54,0.35,-0.13,-10.83,0.03,7.31,0.18,-0.9,-0.1,-1.11,0.15,0.07,0.07,40.51,5.45,0.43,43.963824,-89.086714,3,17,47:49.2,0.09,-0.77,-107.27,6041.29
2862223,774,789.5,131,135,811.96,6041.42,70.3,8.83,0,1,14.25,78.51,36.08,1.01709,-0.151855,0.190674,-1.400992,1.172526,0.52688,7.36,0.72,8233,8688,3629,4021,0,15,-0.03,-0.02,0.01,40.39,5.44,0.54,-0.51,-1.52,-9.85,0.04,7.32,0.18,-1.76,-1.49,-0.13,0.15,0.07,0.07,40.51,5.45,0.43,43.963832,-89.086713,3,15,47:49.2,0.03,-0.78,-107.96,6041.22
2862243,779,789,131,135.5,811.96,6041.42,70.27,8.85,0,1,14.25,78.49,36.08,1.137451,0.028809,0.111816,-0.348135,-0.414388,0.137781,7.34,0.73,8233,8688,3629,4021,0,35,0.04,0.02,0.01,40.37,5.45,0.54,0.32,0.45,-9.26,0.04,7.33,0.2,-0.93,0.49,0.46,0.15,0.07,0.07,40.51,5.45,0.43,43.963839,-89.086712,3,16,47:49.2,0.13,-0.78,-108.82,6041.17
2862263,779,788,131,136,812.21,6033.44,70.23,8.87,0,1,14.25,78.45,36.08,0.918457,-0.122803,0.113281,-0.042959,0.112041,0.481104,7.36,0.76,8235,8683,3635,4023,0,2,0.04,-0.02,0,40.36,5.44,0.55,1.16,0.18,-10.2,0.04,7.33,0.22,-0.09,0.22,-0.48,0.15,0.07,0.07,40.51,5.45,0.43,43.963846,-89.08671,3,16,47:49.2,-0.08,-0.8,-111.19,6041.09
2862283,783,787,131,136,811.96,6041.42,70.18,8.88,0,1,14.25,78.41,36.08,0.887939,0.02002,0.087891,-0.515982,1.225932,0.359034,7.34,0.79,8235,8683,3635,4023,0,22,0.02,0.01,0.01,40.34,5.44,0.55,1.47,-0.65,-9.63,0.05,7.34,0.24,0.22,-0.61,0.09,0.15,0.07,0.07,40.51,5.45,0.43,43.963853,-89.086709,3,16,47:49.3,-0.12,-0.8,-111.26,6041.06
2862303,779,786.5,131,136,811.72,6049.41,70.16,8.9,0,1,14.25,78.37,36.08,0.959961,0.006836,0.114502,-2.362295,-0.933186,0.15304,7.35,0.81,8235,8683,3635,4023,0,42,-0.02,0.02,0.01,40.33,5.44,0.55,0.18,0.04,-10.4,0.05,7.34,0.25,-1.07,0.08,-0.68,0.15,0.07,0.07,40.51,5.45,0.43,43.963861,-89.086708,3,16,47:49.3,-0.04,-0.82,-113.48,6041.05
2862324,774,786,127,136,811.72,6049.41,70.13,8.91,0,1,14.25,78.34,36.08,1.03833,-0.081787,0.132324,-0.775381,-1.093404,0.320887,7.38,0.83,8239,8683,3635,4022,0,3,0.02,-0.02,0,40.31,5.44,0.57,0.28,0.77,-8.38,0.05,7.34,0.26,-0.97,0.81,1.34,0.15,0.07,0.07,40.51,5.45,0.43,43.963868,-89.086706,3,17,47:49.3,0.04,-0.81,-112.64,6041.01
2862343,774,785.1,131,136,811.47,6057.4,70.09,8.92,0,1,14.25,78.33,36.09,1.007812,0.020752,0.138916,0.811533,1.035197,0.160669,7.37,0.84,8239,8683,3635,4022,0,23,0.03,0.04,0,40.3,5.44,0.57,0.57,0.03,-8.72,0.06,7.36,0.29,-0.68,0.08,1,0.15,0.07,0.07,40.51,5.45,0.43,43.963875,-89.086705,3,16,47:49.3,0.01,-0.8,-110.58,6041.06
2862363,779,784.2,136,136,811.72,6049.41,70.05,8.94,0,1,14.25,78.27,36.09,0.993164,0.025391,0.185303,-1.721426,-0.345723,0.008082,7.38,0.84,8235,8683,3633,4020,0,3,0,0.01,0.01,40.28,5.44,0.56,0.29,-0.36,-11.41,0.06,7.35,0.3,-0.96,-0.31,-1.69,0.15,0.07,0.07,40.51,5.45,0.43,43.963882,-89.086704,3,15,47:49.3,0.01,-0.81,-111.47,6041.11
2862383,779,783.3,131,135.5,811.72,6049.41,70.01,8.95,0,1,14.25,78.22,36.09,0.98291,-0.047607,0.166748,-0.813528,1.981242,0.259852,7.4,0.88,8235,8683,3633,4020,0,23,-0.03,0,0,40.26,5.43,0.57,-0.52,-1.41,-9.13,0.07,7.36,0.31,-1.77,-1.36,0.59,0.15,0.07,0.07,40.36,5.43,0.49,43.96389,-89.086702,3,16,47:49.4,-0.01,-0.8,-110,6041.14
2862403,774,782.4,131,135,811.72,6049.41,69.96,8.95,0,1,14.25,78.17,36.09,1.243164,-0.049316,0.135742,-1.454397,-0.856892,0.168299,7.4,0.91,8235,8683,3633,4020,0,43,0.02,0.01,0.01,40.25,5.44,0.57,0.09,0.33,-9.4,0.07,7.36,0.33,-1.17,0.39,0.32,0.15,0.07,0.07,40.36,5.43,0.49,43.963897,-89.086701,3,16,47:49.4,0.24,-0.78,-108.46,6041.15
2862423,774,781.5,141,134.5,811.96,6041.42,69.92,8.96,0,1,14.25,78.11,36.09,0.897949,-0.020752,0.169678,-1.324698,-0.429646,0.465845,7.44,0.91,8233,8677,3631,4023,0,13,0.06,-0.03,0,40.24,5.43,0.58,0.21,-0.09,-10.82,0.07,7.36,0.36,-1.04,-0.03,-1.11,0.15,0.07,0.07,40.36,5.43,0.49,43.963904,-89.0867,3,16,47:49.4,-0.09,-0.8,-110.6,6041.16
2862444,783,780.6,141,134,811.96,6041.42,69.88,8.96,0,1,14.25,78.07,36.09,0.942627,0.01709,0.165771,-0.805899,1.721843,0.122522,7.47,0.95,8233,8677,3631,4023,0,34,0.03,-0.01,0.01,40.22,5.44,0.58,1.27,0.29,-8.61,0.08,7.38,0.36,0.01,0.35,1.11,0.15,0.07,0.07,40.36,5.43,0.49,43.963911,-89.086698,3,18,47:49.4,-0.05,-0.8,-109.8,6041.08
2862463,779,780.2,136,133.5,812.21,6033.44,69.86,8.97,0,1,14.25,78.01,36.09,1.182617,0.012451,0.105225,-0.744864,-0.696675,-0.182653,7.48,0.97,8233,8677,3632,4022,0,12,-0.04,0.02,0,40.2,5.43,0.57,0.25,-0.28,-10.8,0.08,7.38,0.37,-1.01,-0.22,-1.09,0.15,0.07,0.07,40.36,5.43,0.49,43.963919,-89.086697,3,17,47:49.4,0.17,-0.79,-109.51,6041.02
2862483,783,779.8,141,133,811.96,6041.42,69.84,8.97,0,1,14.25,78,36.09,0.922852,-0.133545,0.100098,0.048593,0.112041,0.53451,7.51,0.98,8233,8677,3632,4022,0,31,0.03,0.01,0,40.19,5.43,0.59,0.54,0.23,-9.06,0.08,7.39,0.38,-0.72,0.29,0.65,0.15,0.07,0.07,40.36,5.43,0.49,43.963926,-89.086696,3,15,47:49.5,-0.08,-0.81,-111.68,6040.97
2862503,783,779.4,141,132.5,811.96,6041.42,69.82,8.97,0,1,14.25,77.98,36.09,1.008301,0.099854,0.092773,0.460581,0.462993,-0.022436,7.52,0.96,8233,8677,3632,4022,0,51,0.03,0.03,0.01,40.17,5.43,0.59,0.68,-0.57,-9.37,0.09,7.4,0.39,-0.59,-0.5,0.35,0.15,0.07,0.07,40.36,5.43,0.49,43.963933,-89.086694,3,16,47:49.5,0,-0.81,-111.33,6040.96
2862523,779,779,146,132,812.21,6033.44,69.8,8.96,0,1,14.25,77.94,36.09,0.873779,0.010498,0.156982,-1.683279,-1.26888,0.145411,7.54,0.98,8233,8677,3632,4022,0,71,0.03,0.03,0.01,40.17,5.43,0.59,0.68,-0.57,-9.37,0.09,7.4,0.39,-0.59,-0.5,0.35,0.15,0.07,0.07,40.36,5.43,0.49,43.963933,-89.086694,3,36,47:49.5,-0.12,-0.83,-113.96,6040.89
2862543,779,779,136,132,812.33,6029.45,69.8,8.96,0,1,14.25,77.92,36.09,0.918457,0.039795,0.140869,0.208811,1.569255,-0.258947,7.57,0.97,8233,8677,3632,4022,0,91,0.03,0.03,0.01,40.17,5.43,0.59,0.68,-0.57,-9.37,0.09,7.4,0.39,-0.59,-0.5,0.35,0.15,0.07,0.07,40.36,5.43,0.49,43.963933,-89.086694,3,56,47:49.5,-0.08,-0.84,-115.08,6040.76
2862563,779,779,141,132,812.33,6029.45,69.8,8.96,0,1,14.31,77.93,36.09,1.132812,-0.065186,0.134521,-0.783011,-0.01003,0.130152,7.56,0.99,8235,8679,3631,4022,0,2,-0.01,0.04,0,40.13,5.43,0.59,0.09,-0.39,-9.65,0.09,7.42,0.41,-1.18,-0.32,0.07,0.15,0.07,0.07,40.36,5.43,0.49,43.963955,-89.08669,3,2,47:49.6,0.13,-0.85,-116.47,6040.64
2862583,779,779,146,132.5,812.21,6033.44,69.8,8.96,0,1,14.31,77.93,36.09,0.905273,-0.063232,0.083252,0.651316,-0.551717,-0.144506,7.56,1,8235,8681,3629,4019,0,14,0.02,0,0,40.11,5.43,0.6,0.08,-0.58,-10.55,0.1,7.41,0.43,-1.18,-0.5,-0.84,0.15,0.07,0.07,40.19,5.41,0.51,43.963962,-89.086689,3,15,47:49.6,-0.1,-0.86,-119.04,6040.54
2862603,769,779,136,133,812.21,6033.44,69.8,8.96,0,1,14.31,77.93,36.09,0.995117,0.030762,0.117676,-1.187369,1.431926,0.40481,7.56,1,8235,8681,3629,4019,0,33,0.01,-0.02,0,40.1,5.42,0.6,0.7,-0.93,-9.86,0.1,7.42,0.44,-0.56,-0.86,-0.15,0.15,0.07,0.07,40.19,5.41,0.51,43.963969,-89.086687,3,15,47:49.6,-0.01,-0.86,-118.99,6040.43
2862623,769,779,131,133.5,812.33,6029.45,69.8,8.96,0,1,14.31,77.93,36.09,1.107666,0.012695,0.116455,-1.088186,-0.483052,0.015711,7.54,1,8235,8681,3629,4019,0,53,0,0.02,0,40.08,5.43,0.59,0.27,0.5,-9.81,0.1,7.43,0.44,-0.99,0.58,-0.09,0.15,0.07,0.07,40.19,5.41,0.51,43.963976,-89.086686,3,16,47:49.6,0.1,-0.88,-120.66,6040.3
2862643,764,779,127,134,812.21,6033.44,69.8,8.97,0,1,14.31,77.93,36.09,0.964355,-0.058838,0.150146,0.21644,0.478252,-0.136877,7.53,1,8233,8679,3627,4020,0,19,0.02,-0.01,0,40.07,5.42,0.6,1.01,0.56,-9.42,0.1,7.43,0.45,-0.26,0.63,0.3,0.15,0.07,0.07,40.19,5.41,0.51,43.963984,-89.086685,3,16,47:49.6,-0.03,-0.89,-122.07,6040.23
2862663,769,779,131,134.5,811.96,6041.42,69.8,8.97,0,1,14.31,77.94,36.09,1.072021,-0.005615,0.151611,-0.020071,0.646098,0.092005,7.5,0.99,8233,8679,3627,4020,0,39,0,0.02,0,40.05,5.42,0.6,0.63,-0.7,-9.57,0.1,7.45,0.46,-0.64,-0.62,0.14,0.15,0.07,0.07,40.19,5.41,0.51,43.963991,-89.086683,3,16,47:49.6,0.08,-0.88,-121.45,6040.18
2862683,774,779,141,135.5,812.21,6033.44,69.8,8.98,0,1,14.31,77.93,36.09,0.98584,-0.030273,0.084961,0.269846,-0.559346,0.198816,7.5,0.99,8233,8677,3628,4023,0,18,0,0.01,0,40.04,5.42,0.6,0.64,0,-11.05,0.1,7.44,0.47,-0.63,0.08,-1.33,0.15,0.07,0.07,40.19,5.41,0.51,43.963998,-89.086682,3,16,47:49.7,-0.02,-0.9,-123.71,6040.11
2862704,774,779,141,136.5,811.96,6041.42,69.8,8.99,0,1,14.31,77.94,36.09,1.061523,-0.026855,0.19165,-2.530142,0.340922,0.069117,7.49,0.99,8233,8677,3628,4023,0,39,-0.01,-0.02,0,40.02,5.42,0.61,0.26,-0.46,-9.36,0.1,7.45,0.48,-1.02,-0.38,0.36,0.15,0.07,0.07,40.19,5.41,0.51,43.964005,-89.086681,3,17,47:49.7,0.07,-0.9,-123.83,6040.06
2862723,769,779,136,137.5,811.96,6041.42,69.8,9.01,0,1,14.31,77.94,36.09,1.144043,-0.06543,0.11792,-0.088736,0.218852,0.328516,7.46,0.99,8231,8677,3627,4025,0,5,-0.01,0.03,0,40,5.42,0.61,-0.24,-0.02,-7.97,0.1,7.46,0.48,-1.51,0.07,1.75,0.15,0.07,0.07,40.19,5.41,0.51,43.964012,-89.086679,3,15,47:49.7,0.14,-0.89,-122.24,6040.04
2862743,774,778.5,146,138,811.96,6041.42,69.78,9.02,0,1,14.31,77.94,36.09,0.957031,-0.029541,0.083984,0.903086,-0.154988,-0.342871,7.46,0.98,8231,8677,3627,4025,0,25,0.06,-0.01,-0.01,39.99,5.43,0.61,1.24,1.13,-10.55,0.09,7.46,0.51,-0.03,1.21,-0.84,0.15,0.07,0.07,40.19,5.41,0.51,43.96402,-89.086678,3,16,47:49.7,-0.05,-0.9,-124.22,6039.99
2862763,774,778,141,138.5,812.21,6033.44,69.76,9.04,0,1,14.31,77.91,36.09,0.90918,0.041016,0.113037,-1.645132,1.363261,0.267481,7.44,0.99,8231,8677,3627,4025,0,45,-0.01,0.01,0,39.98,5.41,0.61,1.14,-1.55,-9.09,0.1,7.48,0.5,-0.14,-1.47,0.62,0.15,0.07,0.07,40.19,5.41,0.51,43.964027,-89.086677,3,16,47:49.7,-0.09,-0.91,-124.74,6039.94
2862783,764,777.5,131,139,811.72,6049.41,69.73,9.05,0,1,14.31,77.9,36.09,1.136475,-0.033936,0.113037,-1.278921,-0.566975,-0.136877,7.41,0.99,8235,8675,3624,4024,0,9,-0.02,0.03,0,39.96,5.42,0.61,-0.19,0.65,-9.98,0.09,7.48,0.51,-1.47,0.74,-0.27,0.15,0.07,0.07,40.03,5.43,0.47,43.964034,-89.086675,3,16,47:49.8,0.13,-0.9,-123.66,6039.92
2862803,769,777,151,139.5,811.96,6041.42,69.71,9.07,0,1,14.31,77.86,36.09,0.979736,-0.03833,0.183838,-1.698538,0.668986,0.191187,7.41,0.99,8235,8675,3624,4024,0,29,0.02,-0.01,0,39.94,5.42,0.62,0.52,0.26,-9.71,0.1,7.48,0.53,-0.75,0.35,0.01,0.15,0.07,0.07,40.03,5.43,0.47,43.964041,-89.086674,3,16,47:49.8,-0.01,-0.91,-125.55,6039.85
2862824,769,776,141,140,811.96,6041.42,69.66,9.08,0,1,14.31,77.84,36.09,0.941406,0.009277,0.103027,1.284555,0.798686,-0.083471,7.38,0.98,8235,8675,3624,4026,0,8,0.03,0.03,0,39.92,5.42,0.62,0.78,0.18,-8.74,0.09,7.51,0.54,-0.5,0.27,0.97,0.15,0.07,0.07,40.03,5.43,0.47,43.964048,-89.086673,3,17,47:49.8,-0.06,-0.91,-124.67,6039.8
2862843,769,775,141,140.5,811.96,6041.42,69.62,9.1,0,1,14.31,77.79,36.08,0.906738,0.029053,0.067383,-1.896902,-0.422017,-0.159765,7.37,0.98,8235,8675,3624,4026,0,28,-0.01,0.01,0,39.91,5.42,0.61,0.5,-0.62,-11.66,0.09,7.5,0.55,-0.78,-0.53,-1.95,0.15,0.07,0.07,40.03,5.43,0.47,43.964056,-89.086671,3,17,47:49.8,-0.1,-0.93,-127.18,6039.76
2862863,759,774,141,141,811.96,6041.42,69.57,9.12,0,1,14.31,77.73,36.08,0.956055,-0.104492,0.216553,-1.271292,1.470073,0.168299,7.38,1,8235,8675,3624,4026,0,47,-0.02,-0.02,0,39.89,5.41,0.62,0.03,-0.75,-9.17,0.09,7.51,0.55,-1.25,-0.65,0.54,0.15,0.07,0.07,40.03,5.43,0.47,43.964063,-89.08667,3,15,47:49.8,-0.02,-0.92,-125.94,6039.78
2862883,769,773,136,141,811.96,6041.42,69.52,9.14,0,1,14.31,77.68,36.08,1.172119,0.002197,0.170654,-0.767752,0.440105,-0.113989,7.37,1,8235,8675,3620,4025,0,5,0,0.03,0,39.88,5.42,0.62,0.29,0.3,-9.16,0.1,7.53,0.56,-1,0.4,0.56,0.15,0.07,0.07,40.03,5.43,0.47,43.96407,-89.086669,3,16,47:49.9,0.18,-0.91,-124.73,6039.82
2862903,764,772,151,141,811.72,6049.41,69.47,9.15,0,1,14.31,77.64,36.08,1.072266,-0.069092,0.133301,0.422434,0.127299,0.107264,7.37,1,8235,8675,3620,4025,0,25,0.05,0,-0.01,39.86,5.42,0.63,1.2,0.42,-9.41,0.09,7.53,0.57,-0.09,0.51,0.31,0.15,0.07,0.07,40.03,5.43,0.47,43.964077,-89.086667,3,16,47:49.9,0.07,-0.9,-123.48,6039.86
2862923,764,771,141,141,811.72,6049.41,69.43,9.17,0,1,14.31,77.59,36.08,1.01123,-0.023193,0.143555,2.184824,1.38615,-0.167395,7.37,1,8235,8675,3620,4025,0,45,0.01,0.01,0,39.85,5.42,0.62,1.37,-0.33,-10.85,0.09,7.55,0.58,0.08,-0.24,-1.13,0.15,0.07,0.07,40.03,5.43,0.47,43.964084,-89.086666,3,16,47:49.9,0.02,-0.88,-120.54,6039.94
2862944,764,770.5,141,141,811.96,6041.42,69.4,9.18,0,1,14.31,77.52,36.08,1.21167,-0.102051,0.196533,-1.698538,-0.292317,0.198816,7.39,1.02,8235,8675,3620,4025,0,19,-0.05,0.03,0,39.83,5.41,0.62,0.73,-0.57,-10.4,0.1,7.55,0.57,-0.56,-0.48,-0.69,0.15,0.07,0.07,40.03,5.43,0.47,43.964091,-89.086665,3,18,47:49.9,0.22,-0.88,-120.3,6039.93
2862963,759,770,141,141,811.96,6041.42,69.38,9.2,0,1,14.31,77.49,36.08,1.080566,-0.079834,0.198975,-1.41625,0.554546,0.114893,7.44,1.02,8235,8673,3619,4025,0,5,0.01,-0.01,0,39.82,5.42,0.63,-0.11,0.51,-8.88,0.1,7.56,0.58,-1.4,0.61,0.83,0.15,0.07,0.07,40.03,5.43,0.47,43.964099,-89.086663,3,17,47:49.9,0.1,-0.87,-119.78,6039.91
2862983,764,769.5,151,141,812.21,6033.44,69.35,9.21,0,1,14.31,77.46,36.08,1.138428,-0.033936,0.153564,0.330881,0.638469,0.183558,7.44,1.01,8235,8673,3619,4025,0,24,0,0.06,0,39.8,5.41,0.63,0.19,-0.13,-8.37,0.1,7.58,0.58,-1.11,-0.03,1.35,0.15,0.07,0.07,39.88,5.39,0.47,43.964106,-89.086662,3,15,47:50.0,0.14,-0.87,-119.53,6039.82
2863003,764,768.5,151,141,811.96,6041.42,69.31,9.22,0,1,14.31,77.44,36.08,1.009521,-0.077637,0.057861,1.337961,-0.772969,0.008082,7.46,1.01,8235,8673,3619,4025,0,44,0.04,0,-0.01,39.79,5.41,0.62,0.7,0.41,-11.52,0.09,7.57,0.6,-0.59,0.51,-1.8,0.15,0.07,0.07,39.88,5.39,0.47,43.964113,-89.086661,3,15,47:50.0,0,-0.88,-120.92,6039.8
2863023,759,768,151,141,811.96,6041.42,69.28,9.23,0,1,14.31,77.39,36.08,0.927734,-0.003906,0.176758,-1.484915,1.561626,0.236963,7.49,1,8235,8673,3619,4025,0,64,-0.02,-0.01,0.01,39.77,5.41,0.62,0.72,-1.77,-9.85,0.1,7.59,0.59,-0.57,-1.67,-0.14,0.15,0.07,0.07,39.88,5.39,0.47,43.96412,-89.086659,3,16,47:49.0,-0.06,-0.9,-122.6,6039.74
2863043,769,767.5,156,141,811.72,6049.41,69.26,9.24,0,1,14.31,77.37,36.08,1.221436,-0.030518,0.109619,-1.004263,-1.131551,-0.152136,7.5,1,8233,8675,3618,4025,0,13,-0.01,0.02,0,39.75,5.41,0.62,0.38,1.24,-9.22,0.09,7.6,0.59,-0.92,1.34,0.5,0.15,0.07,0.07,39.88,5.39,0.47,43.964127,-89.086658,3,16,47:49.0,0.21,-0.88,-120.83,6039.74
2863063,764,767,146,141,812.21,6033.44,69.24,9.25,0,1,14.31,77.32,36.09,0.928955,-0.043701,0.201416,-0.630423,1.172526,0.130152,7.55,0.99,8233,8675,3618,4025,0,33,0.05,-0.02,-0.01,39.74,5.41,0.63,0.8,-0.21,-10.04,0.1,7.6,0.61,-0.49,-0.11,-0.33,0.15,0.07,0.07,39.88,5.39,0.47,43.964134,-89.086657,3,16,47:49.0,-0.05,-0.89,-122.09,6039.67
2863083,754,766.5,146,141.5,811.96,6041.42,69.21,9.26,0,1,14.31,77.31,36.09,1.014404,-0.02832,0.10083,1.208261,1.149638,-0.014807,7.55,0.97,8231,8670,3614,4027,0,10,0.01,0.03,0,39.72,5.41,0.62,1.04,0.01,-9.1,0.1,7.63,0.6,-0.26,0.11,0.61,0.15,0.07,0.07,39.88,5.39,0.47,43.964142,-89.086655,3,17,47:49.1,0.01,-0.88,-120.21,6039.62
2863103,759,766,141,141.5,811.72,6049.41,69.19,9.27,0,1,14.31,77.29,36.09,1.174316,0.093262,0.166992,-1.133963,0.081523,-0.3505,7.55,0.95,8231,8670,3614,4027,0,29,-0.01,0.01,0,39.71,5.41,0.62,0.5,-0.45,-11.8,0.1,7.62,0.61,-0.8,-0.35,-2.09,0.15,0.07,0.07,39.88,5.39,0.47,43.964149,-89.086654,3,15,47:49.1,0.18,-0.88,-120.05,6039.58
2863123,759,765.5,151,142,811.96,6041.42,69.16,9.28,0,1,14.31,77.26,36.09,0.968506,-0.153076,0.193604,-0.91271,1.00468,0.359034,7.58,0.96,8231,8670,3614,4027,0,49,-0.02,-0.01,0,39.69,5.4,0.63,-0.02,-0.33,-8.74,0.1,7.64,0.6,-1.33,-0.23,0.97,0.15,0.07,0.07,39.88,5.39,0.47,43.964156,-89.086653,3,16,47:49.1,-0.01,-0.88,-119.52,6039.56
2863143,759,765,141,142.5,811.96,6041.42,69.14,9.29,0,1,14.31,77.23,36.09,1.163574,0.007812,0.099854,0.048593,-0.1321,-0.197912,7.58,0.94,8233,8671,3615,4029,0,13,0.02,0.02,0,39.68,5.41,0.62,0.54,0.48,-9.8,0.1,7.65,0.62,-0.76,0.59,-0.08,0.15,0.07,0.07,39.88,5.39,0.47,43.964163,-89.086651,3,16,47:49.1,0.15,-0.87,-119.1,6039.52
2863163,754,764.5,146,143,811.96,6041.42,69.12,9.3,0,1,14.31,77.2,36.08,0.929688,-0.064697,0.109375,0.483469,-0.681416,0.229334,7.6,0.94,8233,8671,3615,4029,0,33,0.02,-0.01,0,39.67,5.4,0.63,0.72,-0.3,-10.32,0.1,7.65,0.62,-0.59,-0.19,-0.61,0.15,0.07,0.07,39.88,5.39,0.47,43.96417,-89.08665,3,16,47:49.1,-0.07,-0.89,-121.02,6039.46
2863183,754,763.5,146,143.5,811.96,6041.42,69.07,9.32,0,1,14.31,77.18,36.08,0.966797,0.010498,0.113525,0.239328,1.897319,-0.052954,7.61,0.92,8233,8671,3617,4031,0,11,-0.02,-0.02,0,39.65,5.41,0.63,0.67,-0.66,-9.63,0.1,7.67,0.61,-0.64,-0.55,0.08,0.15,0.07,0.07,39.88,5.39,0.47,43.964177,-89.086648,3,16,47:49.2,-0.03,-0.87,-118.37,6039.44
2863204,759,763,146,144,812.21,6033.44,69.04,9.33,0,1,14.31,77.11,36.08,1.134033,-0.023193,0.180176,-0.615164,-0.086324,0.084376,7.62,0.92,8233,8671,3617,4031,0,32,-0.01,0.04,0,39.63,5.41,0.62,0.51,0.13,-9.68,0.1,7.67,0.61,-0.8,0.23,0.04,0.15,0.07,0.07,39.71,5.43,0.52,43.964184,-89.086647,3,17,47:50.2,0.14,-0.88,-119.29,6039.38
2863223,754,762.5,156,144.5,812.21,6033.44,69.02,9.35,0,1,14.31,77.08,36.08,1.024902,-0.09375,0.133789,-0.66094,-0.231282,0.168299,7.66,0.92,8233,8671,3617,4031,0,51,0.02,-0.01,0,39.62,5.41,0.63,0.68,0.12,-9.69,0.1,7.68,0.62,-0.63,0.22,0.02,0.15,0.07,0.07,39.71,5.43,0.52,43.964192,-89.086646,3,15,47:50.2,0.03,-0.88,-120.26,6039.3
2863243,754,762,156,145,811.96,6041.42,69,9.36,0,1,14.31,77.07,36.08,1.042236,0.015625,0.147949,0.567392,1.149638,0.206446,7.66,0.91,8235,8673,3615,4024,0,13,0.02,0.03,0,39.6,5.41,0.63,1.33,0.12,-9.07,0.11,7.7,0.62,0.01,0.22,0.64,0.15,0.07,0.07,39.71,5.43,0.52,43.964199,-89.086644,3,15,47:50.2,0.05,-0.87,-119.19,6039.26
2863263,759,761.5,156,146,812.21,6033.44,68.97,9.38,0,1,14.31,77.03,36.08,1.039307,-0.021484,0.151611,-0.569388,-0.124471,0.084376,7.67,0.91,8235,8673,3615,4024,0,33,-0.01,0.01,0,39.58,5.41,0.62,0.2,0.26,-11.17,0.11,7.69,0.63,-1.12,0.36,-1.46,0.15,0.07,0.07,39.71,5.43,0.52,43.964206,-89.086643,3,16,47:50.2,0.04,-0.89,-120.57,6039.21
2863283,754,761,151,146.5,812.21,6033.44,68.95,9.4,0,1,14.31,77,36.08,0.971924,0.014893,0.142578,-0.241324,0.928386,0.061487,7.7,0.89,8235,8670,3617,4026,0,15,-0.01,0,0,39.57,5.41,0.63,0.09,-0.71,-9.28,0.11,7.71,0.63,-1.22,-0.6,0.43,0.15,0.07,0.07,39.71,5.43,0.52,43.964213,-89.086642,3,16,47:50.3,-0.02,-0.89,-121.04,6039.12
2863303,745,760.5,146,147,811.96,6041.42,68.93,9.42,0,1,14.31,76.99,36.08,1.153809,-0.013184,0.140869,-0.775381,-1.238362,-0.045324,7.69,0.9,8235,8670,3617,4026,0,35,0.01,0.02,0,39.56,5.41,0.62,0.37,0.18,-9.33,0.11,7.72,0.63,-0.94,0.28,0.38,0.15,0.07,0.07,39.71,5.43,0.52,43.96422,-89.08664,3,16,47:50.3,0.15,-0.89,-120.42,6039.07
2863324,759,760,146,147,812.21,6033.44,68.9,9.44,0,1,14.31,76.95,36.08,1.019775,-0.023926,0.11792,0.34614,-0.345723,0.03097,7.73,0.9,8235,8670,3617,4026,0,56,0.02,-0.03,0,39.54,5.41,0.63,0.27,-0.18,-11.07,0.11,7.72,0.64,-1.05,-0.07,-1.36,0.15,0.07,0.07,39.71,5.43,0.52,43.964227,-89.086639,3,17,47:50.3,0.02,-0.9,-121.83,6039.01
2863343,754,759,156,147,812.21,6033.44,68.85,9.45,0,1,14.31,76.92,36.08,0.86792,-0.014893,0.136719,0.155405,2.2559,0.320887,7.75,0.9,8233,8671,3610,4028,0,19,0.03,0.01,0,39.53,5.41,0.63,1.27,-0.45,-8.47,0.12,7.75,0.64,-0.05,-0.35,1.23,0.15,0.07,0.07,39.71,5.43,0.52,43.964234,-89.086638,3,17,47:50.3,-0.13,-0.9,-122.16,6038.98
2863363,754,758,151,147,811.96,6041.42,68.81,9.47,0,1,14.31,76.88,36.08,1.14624,0.073242,0.151855,-1.149222,-0.269429,-0.144506,7.75,0.89,8233,8671,3610,4028,0,38,-0.03,0.01,0.01,39.51,5.41,0.62,0.7,0.08,-11.27,0.12,7.74,0.64,-0.62,0.18,-1.56,0.15,0.07,0.07,39.71,5.43,0.52,43.964241,-89.086636,3,15,47:50.3,0.15,-0.89,-121.58,6038.93
2863383,745,757.5,141,147,812.33,6029.45,68.78,9.48,0,1,14.31,76.81,36.08,0.980469,-0.167236,0.17041,-1.67565,0.760539,0.496363,7.79,0.91,8235,8665,3613,4026,0,5,0,-0.01,0,39.49,5.41,0.63,0.26,0.41,-9.24,0.12,7.75,0.64,-1.06,0.52,0.47,0.15,0.07,0.07,39.58,5.43,0.52,43.964248,-89.086635,3,15,47:50.4,-0.01,-0.9,-122.83,6038.84
2863403,749,757,141,147,811.96,6041.42,68.76,9.49,0,1,14.31,76.8,36.08,1.161865,0.036621,0.123535,-0.058218,0.256999,-0.014807,7.8,0.89,8235,8665,3613,4026,0,25,0.04,0.03,0,39.48,5.42,0.62,0.89,-0.17,-8.71,0.12,7.77,0.65,-0.43,-0.06,0.99,0.15,0.07,0.07,39.58,5.43,0.52,43.964256,-89.086634,3,16,47:50.4,0.16,-0.9,-121.94,6038.81
2863423,735,756.5,146,147,811.96,6041.42,68.73,9.51,0,1,14.31,76.78,36.08,0.955566,0.002197,0.133057,-0.271841,-0.467793,0.053858,7.82,0.89,8235,8665,3613,4026,0,45,0,0.01,0,39.47,5.41,0.62,0.48,-0.01,-10.94,0.12,7.77,0.65,-0.84,0.11,-1.23,0.15,0.07,0.07,39.58,5.43,0.52,43.964263,-89.086632,3,16,47:50.4,-0.04,-0.92,-125.28,6038.74
2863444,745,756,146,147,811.96,6041.42,68.71,9.52,0,1,14.31,76.75,36.08,0.923096,-0.028076,0.203613,-1.362845,0.920756,0.046229,7.86,0.89,8235,8665,3610,4027,0,11,-0.03,0.01,0.01,39.45,5.41,0.63,0.56,-0.8,-8.61,0.13,7.79,0.65,-0.77,-0.69,1.09,0.15,0.07,0.07,39.58,5.43,0.52,43.96427,-89.086631,3,18,47:50.4,-0.06,-0.92,-124.88,6038.66
2863463,749,755.5,146,146.5,811.96,6041.42,68.69,9.53,0,1,14.31,76.72,36.08,1.243652,-0.042969,0.205811,-0.699087,0.379069,-0.037695,7.85,0.9,8235,8665,3610,4027,0,30,-0.01,0.04,0,39.43,5.41,0.62,0.22,0.28,-9.35,0.13,7.79,0.66,-1.11,0.39,0.35,0.15,0.07,0.07,39.58,5.43,0.52,43.964277,-89.086629,3,17,47:50.4,0.26,-0.91,-123.63,6038.61
2863483,735,755,151,146,811.96,6041.42,68.66,9.53,0,1,14.31,76.69,36.08,1.007568,-0.079102,0.133789,-0.248953,-0.76534,0.28274,7.87,0.9,8235,8665,3610,4027,0,49,0.03,-0.01,0,39.42,5.41,0.63,0.2,-0.32,-9.8,0.13,7.79,0.68,-1.13,-0.2,-0.09,0.15,0.07,0.07,39.58,5.43,0.52,43.964284,-89.086628,3,14,47:50.5,0.01,-0.92,-124.62,6038.6
2863503,745,754,146,146,811.72,6049.41,68.61,9.54,0,1,14.31,76.68,36.08,0.935791,0.015137,0.132324,0.742868,1.470073,0.191187,7.88,0.89,8233,8665,3607,4027,0,15,0.05,0,0,39.41,5.41,0.62,1.59,-0.05,-9.84,0.13,7.81,0.68,0.26,0.07,-0.13,0.15,0.07,0.07,39.58,5.43,0.52,43.964291,-89.086627,3,16,47:50.5,-0.06,-0.91,-123.91,6038.6
2863523,735,753,146,146,812.21,6033.44,68.57,9.55,0,1,14.31,76.6,36.08,0.992676,0.008301,0.16333,-1.942679,-0.597493,0.061487,7.9,0.89,8233,8665,3607,4027,0,35,-0.02,0.02,0.01,39.39,5.41,0.62,0.42,-0.39,-10.65,0.13,7.81,0.69,-0.91,-0.27,-0.94,0.15,0.07,0.07,39.58,5.43,0.52,43.964298,-89.086625,3,12,47:50.5,0,-0.93,-125.76,6038.57
2863543,730,752.1,146,146,812.21,6033.44,68.52,9.55,0,1,14.31,76.55,36.08,1.085205,-0.016602,0.197021,-1.469656,1.348003,0.130152,7.95,0.9,8233,8665,3607,4027,0,55,0,0,0,39.37,5.41,0.63,0.44,0.62,-8.94,0.14,7.83,0.69,-0.9,0.73,0.77,0.15,0.07,0.07,39.58,5.43,0.52,43.964305,-89.086624,3,16,47:50.5,0.1,-0.92,-125.08,6038.49
2863563,735,751.2,156,146,811.96,6041.42,68.48,9.56,0,1,14.31,76.51,36.08,1.173828,-0.036865,0.147461,0.033335,-0.093953,-0.159765,7.96,0.9,8233,8663,3607,4022,0,4,0.04,0.04,0,39.36,5.42,0.63,0.96,-0.04,-9.14,0.14,7.85,0.71,-0.38,0.08,0.57,0.15,0.07,0.07,39.58,5.43,0.52,43.964312,-89.086623,3,16,47:50.5,0.17,-0.91,-123.45,6038.48
